[{"title":"Nite Moves ","excerpt":"NITE*MOVES Party jams for the young, bored and restless! Every Saturday night at The Biltmore Cabaret Free entry until Midnight! (no rsvp required) Making you move this week is: Dj Kookum and Jules Ta We will playing everything from the classics to the club bangers. Whatever keeps you sweating on the dancefloor! Total house party vibes! Cardi B // J Beibs // Black Box // Rihanna // SZA // Madonna // Robyn // LCD Soundsystem // Post Malone // Cher // Frank Ocean // The Beatles // Migos // Chance The Rapper // MGMT // Beyoncé // Whitney Houston // Drake // Queen // The Weeknd // Kendrick Lamar // Britney Spears // D.R.A.M. // Mariah Carey // The XX // The Spice Girls // Calvin Harris // The Cure // M.I.A. // Prince // David Bowie // Grimes // ","venue":{"id":17260,"title":"Biltmore Cabaret","permalink":"/venues/biltmore-cabaret","latitude":49.2604058,"longitude":-123.0966757,"popularity":50,"address":"2755 Prince Edward St","city":"Vancouver","state":"BC","zip":"V5T 0A9","full_address":"2755 Prince Edward St, Vancouver, BC, V5T 0A9","is_english":true},"category":"DJ/Parties","popularity":127,"votes":21,"tz_adjusted_begin_date":"2018-05-19T22:30:00-07:00","tz_adjusted_end_date":"2018-05-20T02:00:00-07:00"},{"title":"Brent Cobb & Them ","excerpt":"Beat the Box Office with Loycals! Enter to win a pair of tickets before they go on sale https://www.loycals.com/s/790/SKY1\nMRG CONCERTS PRESENTS:\nBrent Cobb & Them\nwith special guests\nSaturday, May 19\nThe Biltmore Cabaret, Vancouver BC\nMRG Concerts Presale: Thursday, January 18 at 10am-10pm PST - Password: AINTAROAD\nGeneral On Sale: Friday, January 19 at 10am local\nTickets at www.ticketfly.com/purchase/event/1626529\nTickets from $15 + s/c","venue":{"id":17260,"title":"Biltmore Cabaret","permalink":"/venues/biltmore-cabaret","latitude":49.2604058,"longitude":-123.0966757,"popularity":50,"address":"2755 Prince Edward St","city":"Vancouver","state":"BC","zip":"V5T 0A9","full_address":"2755 Prince Edward St, Vancouver, BC, V5T 0A9","is_english":true},"category":"Music","popularity":96,"votes":6,"tz_adjusted_begin_date":"2018-05-19T19:00:00-07:00","tz_adjusted_end_date":"2018-05-20T02:00:00-07:00"},{"title":"Tim Hecker","excerpt":"MRG CONCERTS PRESENTS:\nTim Hecker\nwith Kara-Lis Coverdale\nSaturday, May 19, 2018\nFortune Sound Club, Vancouver BC\nTickets on sale now at www.ticketfly.com/purchase/event/1625109 and Red Cat Records\nTickets from $25 + s/c","venue":{"id":17287,"title":"Fortune Sound Club","permalink":"/venues/fortune-sound-club","latitude":49.28052839999999,"longitude":-123.1007512,"popularity":50,"address":"147 Pender Street East","city":"Vancouver","state":"BC","zip":"V6A1T6","full_address":"147 Pender Street East, Vancouver, BC, V6A1T6","is_english":true},"category":"Music","popularity":92,"votes":2,"tz_adjusted_begin_date":"2018-05-19T19:00:00-07:00","tz_adjusted_end_date":"2018-05-20T02:00:00-07:00"},{"title":"Bossy: Femme Powered Hip Hop + R&B Night","excerpt":"Come get sweaty on the dance floor at BOSSY, our FEMME POWERED Hip Hop and R&B dance party.\r\nBOSSY is an inclusive dance party celebrating the talent of women/femme identified and nonbinary people in hip hop/rnb/grime. Expect to hear artists like: Missy Elliot, Beyonce, Lil Kim, Foxy Brown, Trina, Lauryn Hill, TLC, Erykah Badhu, Tinashe,MIA, Eve, Nicki Minaj, Lady, Shawnna, Candi Redd, Ciara, Dej Loaf, Lady Leshurr, Princess Nokia, Red/Double Trouble, Crime Mob/Diamond,Young M.A, Kodie Shane, Dreezy, + More. \r\nThe Fox Cabaret (2321 Main Street)\r\n10:30pm — 2am\r\n19+ General Admission\r\nTickets: $8 Advanced (plus tax + s/c) | $12 Door\r\nBringing a large group or celebrating something special? Contact our guest service co-ordinator to request free","venue":{"id":344958,"title":"The Fox Cabaret","permalink":"/venues/the-fox-cabaret","latitude":49.26425889999999,"longitude":-123.1011823,"popularity":50,"address":"2321 Main Street","city":"Vancouver","state":"BC","zip":"V5T 3C9","full_address":"2321 Main Street, Vancouver, BC, V5T 3C9","is_english":true},"category":"Music","popularity":78,"votes":3,"tz_adjusted_begin_date":"2018-05-19T22:30:00-07:00","tz_adjusted_end_date":"2018-05-20T02:00:00-07:00"},{"title":"Lost Girls Burlesque - Beltane Nocturnal","excerpt":"Lost Girls Burlesque - BELTANE NOCTURNAL at Fox Cabaret - Saturday May 19thSeason Finale Show - Doors @ 8pm Show at 9pm. From the sexiest depths of darkness, these deadly babes have risen to destroy the night: The Lost Girls. Presented in continuous, non-stop, hot-action format like youve NEVER seen before. In technicolour and high-definition! No emcees, no holds barred, NO MERCY! A daring exposé of flesh that will tantalize and torture even the most respectable members of society. Prepare to be ripped apart by seduction as The Lost Girls bare it all, again and again... and again. Monthly at the Fox Cabaret.With performances by:Veronica VexCalamity KateBunnyJustine SaneGinger Avenue\nwith guest Lilac Luste - Marilu Retana - Fabiola Gascon\n\nww","venue":{"id":344958,"title":"The Fox Cabaret","permalink":"/venues/the-fox-cabaret","latitude":49.26425889999999,"longitude":-123.1011823,"popularity":50,"address":"2321 Main Street","city":"Vancouver","state":"BC","zip":"V5T 3C9","full_address":"2321 Main Street, Vancouver, BC, V5T 3C9","is_english":true},"category":"Theatre & Performing Arts","popularity":63,"votes":3,"tz_adjusted_begin_date":"2018-05-19T20:00:00-07:00","tz_adjusted_end_date":"2018-05-20T02:00:00-07:00"},{"title":"The Cookout on Tour: Devault, Gg Magree, Noizu, & Parker","excerpt":"Celebrities Nightclub Presents:\nThe Cookout On Tour Featuring:\nDEVAULT\nGG MAGREE\nNoizu\nParkerhits\n19/05/2018 @ Celebrities (Vancouver, BC)\n19+ / Doors:10:00pm \nTickets go on pre-sale this Friday, March 2nd at 10:00 am - you can grab them at http://bit.ly/cookouttouryvr!\n(Artwork designed by Stegra)","venue":{"id":17349,"title":"Celebrities","permalink":"/venues/celebrities","latitude":49.2794165,"longitude":-123.1299374,"popularity":40,"address":"1022 Davie St.","city":"Vancouver","state":"BC","zip":"V6E 1M3","full_address":"1022 Davie St., Vancouver, BC, V6E 1M3","is_english":true},"category":"DJ/Parties","popularity":60,"votes":6,"tz_adjusted_begin_date":"2018-05-19T22:00:00-07:00","tz_adjusted_end_date":"2018-05-20T02:00:00-07:00"},{"title":"Dada Life - Our Nation Tour","excerpt":"This Victoria Day Long Weekend we welcome back Dada Life at the Harbour Event Centre for their \"OUR NATION NORTH AMERICAN TOUR\". \n❂Ticket: Friday, March 16th @ 10:00AM [ON-SALE]\n❂ Lineup: DADA LIFE + Support\n❂ Date: Saturday, May 19.2018\n❂ Venue: Harbour Event Centre \n 750 Pacific BLVD. Vancouver. BC\n❂ Info: 19+ ID Required // Doors 10PM\n❂ Contact: info@solidevents.ca\nPresented SolidEvents.ca\nFollow DADA LIFE:\nWebsite - www.dadalife.com\nFacebook - www.facebook.com/dadalife\nTwitter - www.twitter.com/dadalife\nInstagram - www.instagram.com/dadalife\nYouTube - www.youtube.com/dadalife\nSoundcloud - www.soundcloud.com/dada-life \nJoin the Mailing List - http://eepurl.com/c4v01z\nSolidEvents.ca\n#solidevents #besolid #solidfamily\nwww.solidevents.ca","venue":{"id":384687,"title":"Harbour Event Centre","permalink":"/venues/harbour-event-centre","latitude":49.27524940000001,"longitude":-123.1098319,"popularity":25,"address":"750 Pacific BLVD","city":"Vancouver","state":"BC","zip":"V6Z 2R8","full_address":"750 Pacific BLVD, Vancouver, BC, V6Z 2R8","is_english":true},"category":"DJ/Parties","popularity":57,"votes":7,"tz_adjusted_begin_date":"2018-05-19T22:00:00-07:00","tz_adjusted_end_date":"2018-05-20T02:00:00-07:00"},{"title":"Leave Us Lost","excerpt":"#lostallday at The WaldorfJay Tripwire | Derrick Vnuk | AIDA | Saif AliJay Tripwire\nFB: https://www.facebook.com/jaytripwire.fanpage/\nSC: https://soundcloud.com/jaytripwire\nDerrick VnukFB: https://www.facebook.com/djderrickvnuk/SC: https://soundcloud.com/derrickvnuk\nAIDAFB: https://www.facebook.com/aidadj/SC: https://soundcloud.com/aida-dj\nSaif AliSC: https://soundcloud.com/syed-saif-ali-24\nTickets on sale MONDAY, APRIL 23 @ 10:00AM","venue":{"id":17303,"title":"At The Waldorf","permalink":"/venues/at-the-waldorf","latitude":49.2814968,"longitude":-123.0745067,"popularity":40,"address":"1489 E Hastings St","city":"Vancouver","state":"BC","zip":"V5L 1S4","full_address":"1489 E Hastings St, Vancouver, BC, V5L 1S4","is_english":true},"category":"Music","popularity":50,"votes":5,"tz_adjusted_begin_date":"2018-05-19T14:00:00-07:00","tz_adjusted_end_date":"2018-05-20T02:00:00-07:00"},{"title":"A Midsummer Night's Dream","excerpt":"Coastal City Ballet closes its 2017/18 season with the remount of Irene Schneider’s enchanting ballet, Shakespeare’s A Midsummer Night’s Dream, May 19 at Vancouver Playhouse and June 8 at Surrey Arts Centre. Set to the exquisite music of Felix Mendelssohn, this full-length ballet, which premiered in 2013, will showcase the prodigious talents of the Lower Mainland’s finest young dancers in their season finale.\n\n“As we wrap up our seventh season, we are delighted to revisit German choreographer Irene Schneider’s magnificent ballet,” says Li Yaming, CCB Artistic Director. “For this production, translating the elegance of Shakespeare’s language into the joyous, expressive form that is dance, we are thrilled to welcome back a number of our gradua","venue":{"id":17295,"title":"Vancouver Playhouse","permalink":"/venues/vancouver-playhouse","latitude":49.2807738,"longitude":-123.1125125,"popularity":5,"address":"600 Hamilton Street","city":"Vancouver","state":"BC","zip":"V6B 3L4","full_address":"600 Hamilton Street, Vancouver, BC, V6B 3L4","is_english":true},"category":"Art & Culture","popularity":47,"votes":42,"tz_adjusted_begin_date":"2018-05-19T19:00:00-07:00","tz_adjusted_end_date":"2018-05-20T02:00:00-07:00"},{"title":"Saturday Sessions","excerpt":"At the Railway every Saturday afternoon.\nBring your axe & jam with the band, or stop by for a drink and enjoy a great afternoon of music and friends.\nHosted by Joe Rotundo, Mike Van Eyes, Jimmy Roy, Scott Smith and special guests.\nFor more information email railway@donnellygroup.ca.\n \n\n The legendary Saturday afternoon jam returns ","venue":{"id":17276,"title":"Railway Stage & Beer Café","permalink":"/venues/railway-stage-beer-cafe","latitude":49.2828958,"longitude":-123.1150214,"popularity":40,"address":"579 Dunsmuir Street","city":"Vancouver","state":"BC","zip":"V6B 1Y4","full_address":"579 Dunsmuir Street, Vancouver, BC, V6B 1Y4","is_english":true},"category":"Music","popularity":46,"votes":5,"tz_adjusted_begin_date":"2018-04-28T16:30:00-07:00","tz_adjusted_end_date":"2018-08-26T02:00:00-07:00"},{"title":" The Lone Palms + Guests","excerpt":"Live Acts Canada + The Live Agency presents: The Lone Palms with special guests Harlequin Gold, Blue J and Okay MannThe Lone Palms (Vancouver) // A group of wandering vagabonds that stumbled into Vancouver, BC, and never left. Alex Cooper, Dave Comrie and Dan Cerino draw from a mutual love of 60's and 70's rock. Inspired by the carefree, cross country drawl of artists like Neil Young, America, the Eagles as well as the frenetic stylings of artists such as E.L.O, The Creation, Queens of the Stone Age and Ben Caplan. Having formed their musical identities through years of session work, drunken jams, broken bands and good time playlists the group now feel more confident than ever to make the music they’ve always wanted. You can expect a rock fo","venue":{"id":17276,"title":"Railway Stage & Beer Café","permalink":"/venues/railway-stage-beer-cafe","latitude":49.2828958,"longitude":-123.1150214,"popularity":40,"address":"579 Dunsmuir Street","city":"Vancouver","state":"BC","zip":"V6B 1Y4","full_address":"579 Dunsmuir Street, Vancouver, BC, V6B 1Y4","is_english":true},"category":"Music","popularity":42,"votes":2,"tz_adjusted_begin_date":"2018-05-19T20:00:00-07:00","tz_adjusted_end_date":"2018-05-20T02:00:00-07:00"},{"title":"Blues Brunch","excerpt":"Enjoy brunch and live blues every Saturday with Rob Montgomery and friends.\n$3 craft beer 'til 5PM. $11 pressed sandwiches. \nStart: 1:00PM // 19+\nRAILWAY STAGE & BEER CAFÉ\n579 Dunsmuir Street\nhttp://www.facebook.com/railwaySBC\nhttp://www.twitter.com/railwaySBC\nhttp://www.instagram.com/railwaySBC\nFor more information email railway@donnellygroup.ca.","venue":{"id":17276,"title":"Railway Stage & Beer Café","permalink":"/venues/railway-stage-beer-cafe","latitude":49.2828958,"longitude":-123.1150214,"popularity":40,"address":"579 Dunsmuir Street","city":"Vancouver","state":"BC","zip":"V6B 1Y4","full_address":"579 Dunsmuir Street, Vancouver, BC, V6B 1Y4","is_english":true},"category":"Music","popularity":42,"votes":2,"tz_adjusted_begin_date":"2018-04-28T13:00:00-07:00","tz_adjusted_end_date":"2018-06-03T02:00:00-07:00"},{"title":"Franklins Dealers w/ Crashing Angels","excerpt":"The Roxy Cabaret & Magnetized Productions presents:\nFranklins Dealers w/ CRASHING ANGELS\nSaturday, May 19\nDoors 7:00pm\nTickets $10 in advance/$13 at the door\n+19 for entry","venue":{"id":365862,"title":"The Roxy","permalink":"/venues/the-roxy","latitude":49.2796648,"longitude":-123.1218226,"popularity":25,"address":"932 Granville Street","city":"Vancouver","state":"BC","zip":"V6Z 1L2","full_address":"932 Granville Street, Vancouver, BC, V6Z 1L2","is_english":true},"category":"Music","popularity":35,"votes":3,"tz_adjusted_begin_date":"2018-05-19T19:00:00-07:00","tz_adjusted_end_date":"2018-05-20T02:00:00-07:00"},{"title":"Latmun at #DeepDownInside","excerpt":"Doors 10pm - 3am\nPresented by Beatginnings & Are you MIA & Blueprint Events\nfacebook page\nLatmun brings his world class Tech House sound to #DeepDownInside on Saturday, May 19th – Doors 10pm","venue":{"id":345789,"title":"M.I.A.","permalink":"/venues/m-i-a","latitude":49.2844163,"longitude":-123.1100823,"popularity":20,"address":"350 Water St","city":"Vancouver","state":"BC","zip":"V6B 1B6","full_address":"350 Water St, Vancouver, BC, V6B 1B6","is_english":true},"category":"DJ/Parties","popularity":32,"votes":2,"tz_adjusted_begin_date":"2018-05-19T22:00:00-07:00","tz_adjusted_end_date":"2018-05-20T02:00:00-07:00"},{"title":"Sean Viloria & The Outcast Empyre","excerpt":"Doors 7pmShow 10pmPay-What-You-CanSean Viloria was born in Saskatoon Saskatchewan but currently calls Vancouver, British Columbia his home. Touring across Canada playing with groups like Wide Mouth Mason, The Steadies, Mobadass, DNA6, Kyprios and others gave him the opportunity to open for such legendary acts as The Roots, ZZTOP,The Pharcyde, Antibalas, Lee Fields And The Expressions, Sweatshop Union, Los Lobos, and more.Influenced by a vast array genres and artists , Sean has developed into a one-of-a-kind solo artist, performer, songwriter, and producer, absorbing sounds and influences from bands such as Bob Marley and The Wailers, D'angelo, A Tribe Called Quest, The Roots, Ben Harper, Prince and The Police.Backed by The Outcast Empyre, th","venue":{"id":346305,"title":"Guilt & Company","permalink":"/venues/guilt-company","latitude":49.2837867,"longitude":-123.1040238,"popularity":20,"address":"1 Alexander St","city":"Vancouver","state":"BC","zip":"V6A 1B2","full_address":"1 Alexander St, Vancouver, BC, V6A 1B2","is_english":true},"category":"Music","popularity":28,"votes":1,"tz_adjusted_begin_date":"2018-05-19T19:00:00-07:00","tz_adjusted_end_date":"2018-05-20T02:00:00-07:00"},{"title":"The Room","excerpt":"And truly, truly, the best (trust!) way to experience this “masterpiece” is in the dark, on the big screen, and with a packed audience of confused (and enthused!) lovers of director Tommy Wiseau‘s bizarre cinematic oddity that has morphed into a pop-culture phenomenon. Also: #spoons. Audience costumes welcome and encouraged!!!\nSaturday, May 19THE ROOMDoors 10:15 pm | Movie 11:00 pm\nTickets $12 advance HERE | $14 at the door\n*Must be 19+ w/ID for entry and bar service\n**Rio Theatre Groupons and passes OK! Please redeem at the door.\n***Audience costumes welcome – and encouraged! (Don’t forget to bring your spoons…)","venue":{"id":17306,"title":"The Rio Theatre","permalink":"/venues/the-rio-theatre","latitude":49.2621803,"longitude":-123.0704502,"popularity":9,"address":"1660 East Broadway","city":"Vancouver","state":"BC","zip":"V5N 1W1","full_address":"1660 East Broadway, Vancouver, BC, V5N 1W1","is_english":true},"category":"Film","popularity":15,"votes":1,"tz_adjusted_begin_date":"2018-05-19T23:00:00-07:00","tz_adjusted_end_date":"2018-05-20T02:00:00-07:00"},{"title":"Game Night","excerpt":"Jason Bateman and Rachel McAdams star as Max and Annie, whose weekly couples game night gets kicked up a notch when Max’s charismatic brother, Brooks (Kyle Chandler), arranges a murder mystery party, complete with fake thugs and faux federal agents. So when Brooks gets kidnapped, it’s all part of the game–right? But as the six uber-competitive gamers set out to solve the case and win, they begin to discover that neither this game–nor Brooks–are what they seem to be. Over the course of one chaotic night, the friends find themselves increasingly in over their heads as each twist leads to another unexpected turn. With no rules, no points, and no idea who all the players are, this could turn out to be the most fun they’ve ever had… or game over.","venue":{"id":17306,"title":"The Rio Theatre","permalink":"/venues/the-rio-theatre","latitude":49.2621803,"longitude":-123.0704502,"popularity":9,"address":"1660 East Broadway","city":"Vancouver","state":"BC","zip":"V5N 1W1","full_address":"1660 East Broadway, Vancouver, BC, V5N 1W1","is_english":true},"category":"Film","popularity":15,"votes":1,"tz_adjusted_begin_date":"2018-05-19T20:15:00-07:00","tz_adjusted_end_date":"2018-05-20T02:00:00-07:00"},{"title":"8th Annual Kick Cancers a$$! Vancity!!","excerpt":"8th Annual KICK cancers A$$! \nFundraiser in VANCOUVER!!\nCome join US at the RICKSHAW THEATRE!\nSeats 900, we are gonna BLOW the ROOF OFF!!\nONLY $20.00 per ticket!\nOUR FUNDRAISER, its Supporters & Sponsors community is getting BIGGER!\nMore Popular. \nMagic Show, Online/Silent Auction, Wheel of Fortune for Prizes! \nFUNKDOOBIEST is flying in from California to Headline at Our EVENT!!\n7:15pm:\nSHAYNE THE KING of MAGIC\n7:50pm:\nAWKWARD A/C\n8:40pm: \nJUNK\n9:30pm:\nANTIPOLITIC w/ REMO playing BASS!\n10:30pm:\nCOCAINE MOUSTACHE \n11:40pm:\nFUNKDOOBIEST \nALWAYS Raising Awareness for BC Cancer Research Foundation❤️\nThis 8th annual Fundraiser EVENT: \nwe will be donating towards a FAMILY with a 6 year old fighting Cancer ❤️ **for Privacy while the Child is going ","venue":{"id":17263,"title":"Rickshaw Theatre","permalink":"/venues/rickshaw-theatre","latitude":49.2809834,"longitude":-123.0983592,"popularity":8,"address":"254 East Hastings St","city":"Vancouver","state":"BC","zip":"V6A 1P1","full_address":"254 East Hastings St, Vancouver, BC, V6A 1P1","is_english":true},"category":"Music","popularity":15,"votes":2,"tz_adjusted_begin_date":"2018-05-19T19:00:00-07:00","tz_adjusted_end_date":"2018-05-20T02:00:00-07:00"},{"title":"Grace Jones: Bloodlight and Bami","excerpt":"This electrifying journey through the public and private worlds of pop culture mega-icon Grace Jones contrasts musical sequences with intimate personal footage, all the while brimming with Jones’s bold aesthetic. A larger-than-life entertainer, an androgynous glam-pop diva, an unpredictable media presence – Grace Jones is all these things and more. Sophie Fiennes’ documentary goes beyond the traditional music biography, offering a portrait as stylish and unconventional as its subject. Taking us home with her to Jamaica, into the studio with long-time collaborators Sly & Robbie, and backstage at gigs around the world, the film reveals Jones as lover, daughter, mother, and businesswoman. But the stage is the fixed point to which the film retur","venue":{"id":17306,"title":"The Rio Theatre","permalink":"/venues/the-rio-theatre","latitude":49.2621803,"longitude":-123.0704502,"popularity":9,"address":"1660 East Broadway","city":"Vancouver","state":"BC","zip":"V5N 1W1","full_address":"1660 East Broadway, Vancouver, BC, V5N 1W1","is_english":true},"category":"Film","popularity":15,"votes":1,"tz_adjusted_begin_date":"2018-05-19T15:45:00-07:00","tz_adjusted_end_date":"2018-05-20T02:00:00-07:00"},{"title":"My Neighbor Totoro","excerpt":"There is no better way to appreciate the magic of Studio Ghibli than on the big screen!\nMovie-lovers of all ages adore the wonderful colletction from Japan’s famed Studio Ghibli, and Hayao Miyazaki‘s “breakthrough” film MY NEIGHBOUR TOTORO (1988) is one of their most popular titles This heartwarming and sentimental tale about sisters Satsuki and Mei encountering a mythical forest sprite and its woodland companions when they move to rural Japan is perfect for movie-lovers of all ages – minors very welcome in the balcony!\n“An otherworldly tale of childhood and a definitive work of imagination.” (Empire Magazine)\n“One of the finest family films ever made.” (Film4)\nSunday, May 13 *This screening is the English dub\nDoors 12:45 pm | Movie 1:15 pmT","venue":{"id":17306,"title":"The Rio Theatre","permalink":"/venues/the-rio-theatre","latitude":49.2621803,"longitude":-123.0704502,"popularity":9,"address":"1660 East Broadway","city":"Vancouver","state":"BC","zip":"V5N 1W1","full_address":"1660 East Broadway, Vancouver, BC, V5N 1W1","is_english":true},"category":"Film","popularity":15,"votes":1,"tz_adjusted_begin_date":"2018-05-19T13:30:00-07:00","tz_adjusted_end_date":"2018-05-20T02:00:00-07:00"},{"title":"The Corps Album Release w/ Guests","excerpt":"Modified Ghost Presents..\nTHE CORPS \n\nTales From 2814 Album Release\n\nw/ The Greatest Sons, Storc & Spring BreaksSaturday, May 19, 2018The Astoria769 East Hastings Street**Doors at 8pm** – Ages 19+Tickets: goo.gl/8WVBEu\n\nTHE CORPS (Tales From 2814 Album Release)www.facebook.com/thecorps2814www.thecorps2814.comwww.thecorps.bandcamp.com\n\nwith\n\nTHE GREATEST SONSwww.facebook.com/TheGreatestSonswww.thegreatestsons.bandcamp.com\nSTORCwww.facebook.com/storcbandwww.storc.bandcamp.com\nSPRING BREAKSwww.facebook.com/springbreaksmusicwww.springbreaks1.bandcamp.com","venue":{"id":17300,"title":"The Astoria","permalink":"/venues/the-astoria","latitude":49.281277,"longitude":-123.0879565,"popularity":7,"address":"769 East Hastings Street","city":"Vancouver","state":"BC","zip":"V6A 1R3","full_address":"769 East Hastings Street, Vancouver, BC, V6A 1R3","is_english":true},"category":"Music","popularity":13,"votes":1,"tz_adjusted_begin_date":"2018-05-19T20:00:00-07:00","tz_adjusted_end_date":"2018-05-20T02:00:00-07:00"},{"title":"Impressions Of Lightfoot","excerpt":"Last year, drummer James McRae re-envisioned Gordon Lightfoot’s iconic songbook collaborating with fellow jazz luminaries Rene Worst bass, Jennifer Scott vocals and Miles Black piano. The resulting recording, Impressions of Lightfoot, is filled with fresh and innovative interpretations of his music. The group performed the tunes to a sold out crowd at Frankie’s Jazz Club last fall. For this performance Bill Coon is stepping in for Miles Black.","venue":{"id":378941,"title":"Frankie's Jazz Club","permalink":"/venues/frankie-s-jazz-club","latitude":49.2781484,"longitude":-123.1134225,"popularity":10,"address":"765 Beatty Street","city":"Vancouver","state":"Br","zip":"V6B2M4","full_address":"765 Beatty Street, Vancouver, Br, V6B2M4","is_english":true},"category":"Music","popularity":11,"votes":1,"tz_adjusted_begin_date":"2018-05-19T20:00:00-07:00","tz_adjusted_end_date":"2018-05-20T02:00:00-07:00"},{"title":"Craft and the Furious","excerpt":"Are your favorite things Crafts, Comedy, and a movie franchise that's basically people with muscles, who's superpower is that they're good with cars? Even if only one of these is your jam, you'll have a fun weird time at Little Mountain Gallery.We've got some of the city's funniest people to chat while a certain movie about cars plays (legally I'm just going to avoid saying what it is, but like, you know what it will be).While we make jokes, we encourage you to bring a craft project to do during the show, and we can also chat about that!Let's say you don't have a craft project, well you're in luck. We've teamed up with The Basic Stitches (https://www.etsy.com/ca/shop/basicstitchesdesign) who will have kits available to you. You're also welco","venue":{"id":353243,"title":"Little Mountain Gallery","permalink":"/venues/little-mountain-gallery","latitude":49.2481131,"longitude":-123.1016289,"popularity":9,"address":"195 E 26th Ave","city":"Vancouver","state":"BC","zip":"V5V 2G8","full_address":"195 E 26th Ave, Vancouver, BC, V5V 2G8","is_english":true},"category":"Comedy","popularity":10,"votes":1,"tz_adjusted_begin_date":"2018-05-19T22:00:00-07:00","tz_adjusted_end_date":"2018-05-20T02:00:00-07:00"},{"title":"Umetsugu Inoue: Japan’s Music Man","excerpt":"MAY 19-20, 26-27\n“A director who had a big impact on Japanese and Hong Kong pop cinema ... Inoue’s mix of music, action, and hot young talent became a template for a new genre, called Nikkatsu Action.”\nMARK SCHILLING, VARIETY\n“I’m a drummer, a no-good drummer / When I get mad, I start a storm.”\nYUJIRO ISHIHARA, SINGING IN THE STORMY MAN\nAlthough the prolific Japanese filmmaker Umetsugu Inoue made movies in a number of genres, he may be best known as a specialist in musicals. He began making youth-oriented musicals in the 1950s at Nikkatsu, the influential Japanese genre-cinema studio that launched the career of cult favourite Seijun Suzuki. (Suzuki was the subject of a Cinematheque retrospective in 2016; Nikkatsu productions were themselves ","venue":{"id":365889,"title":"The Cinematheque","permalink":"/venues/the-cinematheque","latitude":49.2786643,"longitude":-123.1265618,"popularity":9,"address":"200 - 1131 Howe Street","city":"Vancouver","state":"BC","zip":"V6Z 2L7","full_address":"200 - 1131 Howe Street, Vancouver, BC, V6Z 2L7","is_english":true},"category":"Film","popularity":10,"votes":1,"tz_adjusted_begin_date":"2018-05-19T19:00:00-07:00","tz_adjusted_end_date":"2018-05-21T02:00:00-07:00"},{"title":"VANCAF: Vancouver Comic Arts Festival 2018","excerpt":"Free: Registration not required.","venue":{"id":366000,"title":"SFU Woodward's","permalink":"/venues/sfu-woodward-s","latitude":49.2823717,"longitude":-123.1085803,"popularity":7,"address":"149 West Hastings Street","city":"Vancouver","state":"BC","zip":"V6B 1H4","full_address":"149 West Hastings Street, Vancouver, BC, V6B 1H4","is_english":true},"category":"Art & Culture","popularity":10,"votes":3,"tz_adjusted_begin_date":"2018-05-19T10:00:00-07:00","tz_adjusted_end_date":"2018-05-21T02:00:00-07:00"},{"title":"BloodFeud: Standup VS Improv","excerpt":"A monthly show on the third Saturday at Little Mountain Gallery where Standup Comedians and Improvisers battle it out for comedy glory.In the first half, we've got a lineup of some of Vancouver's best stand ups who have been making the rounds in the dark and dank rooms in Vancouver applying their craft to whoever is will tolerate them. The stand ups, who have honed their jokes until they are perfect, come to the Bloodfeud stage to show you what meticulous hard work and dedication can do.In the second half, a group of happy-go-lucky and \"uppity\" improvisers, representing the major Improv hubs of Vancouver, and having done nothing to prepare for the night, hit the stage. Using the hard work of the stand ups as their inspiration, the improviser","venue":{"id":353243,"title":"Little Mountain Gallery","permalink":"/venues/little-mountain-gallery","latitude":49.2481131,"longitude":-123.1016289,"popularity":9,"address":"195 E 26th Ave","city":"Vancouver","state":"BC","zip":"V5V 2G8","full_address":"195 E 26th Ave, Vancouver, BC, V5V 2G8","is_english":true},"category":"Comedy","popularity":9,"votes":0,"tz_adjusted_begin_date":"2018-05-19T20:00:00-07:00","tz_adjusted_end_date":"2018-05-20T02:00:00-07:00"},{"title":"▲ Arcade Takeover ▼ ","excerpt":"Damp Nightlife Presents: Arcade takeover @ VALs new Lab! Its a pleasure to bring two of British Columbias most prominent after-hour venues together! www.arcadelounge.cahttp://www.vanartleisure.com/Grizz Lee [Arcade] Kelowna, BCFinal boss at Arcade\n\nColin Syck [Arcade] Kelowna, BChttps://soundcloud.com/colin-syck\nColin Syck has been djing for the last 15 years, with residencies at HigherGround, Liquidbeat, The Fractal Forest (Shambhala) Geminate, and ARCADE. He has a deep love of funk, disco, nu-wave,synth-pop, post punk, and underground house. His aim is for a diverse range of sounds and he has a healthy disrespect of style conformity. It's all about challenging to the norm and provoking the dancefloor.\n\nDr. Brae [Arcade] Kelowna, BChttps://","venue":{"id":366807,"title":"Vancouver Art and Leisure (VAL)","permalink":"/venues/vancouver-art-and-leisure-val","latitude":49.2657349,"longitude":-123.106975,"popularity":8,"address":"101 W 6th Ave","city":"Vancouver","state":"BC","zip":"V5Y 1K3","full_address":"101 W 6th Ave, Vancouver, BC, V5Y 1K3","is_english":true},"category":"Music","popularity":8,"votes":0,"tz_adjusted_begin_date":"2018-05-19T22:00:00-07:00","tz_adjusted_end_date":"2018-05-20T02:00:00-07:00"},{"title":"DJ Hype B2B DJ Hazard at SUBculture Saturdays 100% DnB:","excerpt":"Digital Motion presents>>>>> SUBculture Saturdays May 19thYes you read correctly! DJ HYPE and DJ HAZARD are coming overseas to Vancouver this spring for a very rare Drum and Bass b2b showcase! This will be part of our special back to back DnB weekend SUBculture special! Our first show is May 12th with Calyx and Teebee + Break!DJ Hype [Playaz Recordings] http://www.playaz.co.uk/artists/dj-hype/ http://www.facebook.com/hypehypehype http://www.twitter.com/DJHYPE_PLAYAZ http://www.youtube.com/user/DjHypeDnbListen to https://soundcloud.com/fabric/dj-hype-fabriclive-x-playazDJ Hazard [Playaz Recordings] http://www.playaz.co.uk/artists/hazard http://www.facebook.com/djhazard.official http://www.twitter.com/djhazard_playaz\nhttps://soundcloud.com/djh","venue":{"id":17344,"title":"Red Room Ultra Bar","permalink":"/venues/red-room-ultra-bar","latitude":49.28424949999999,"longitude":-123.1113665,"popularity":5,"address":"398 Richards Street","city":"Vancouver","state":"BC","zip":"V6B 4Y2","full_address":"398 Richards Street, Vancouver, BC, V6B 4Y2","is_english":true},"category":"DJ/Parties","popularity":7,"votes":2,"tz_adjusted_begin_date":"2018-05-19T22:30:00-07:00","tz_adjusted_end_date":"2018-05-20T02:00:00-07:00"},{"title":"The Whitridge Brothers, LIVE at Hot Club Swing!","excerpt":"This month, we are tickled to be able to host not one, but TWO dances featuring live music! On Saturday, May 19th, we welcome the talented twosome Trevor Whitridge & Rowan Whitridge to the HCS stage--we can't wait to find out who they bring in the rhythm section, and look forward to swinging out to their tunes all night!As per usual, we will kick off the night with our total beginner drop-in swing dance lesson--no partner and no previous dance experience necessary! The Vancouver Swing Society firmly believes that any and every body can learn to follow and/or lead, regardless of age, gender expression, ability, and any other aspect of identity. All we ask is that you choose one role (lead or follow) to learn during the lesson, and stick with ","venue":{"id":17330,"title":"Roundhouse Community Arts & Recreation Centre","permalink":"/venues/roundhouse-community-arts-recreation-centre","latitude":49.2733084,"longitude":-123.1217472,"popularity":5,"address":"181 Roundhouse Mews","city":"Vancouver","state":"BC","zip":"V6Z 2W3","full_address":"181 Roundhouse Mews, Vancouver, BC, V6Z 2W3","is_english":true},"category":"Music","popularity":7,"votes":2,"tz_adjusted_begin_date":"2018-05-19T20:00:00-07:00","tz_adjusted_end_date":"2018-05-19T23:55:00-07:00"},{"title":"Art Battle Vancouver - May 19:","excerpt":"Art Battle® can't wait to be back in Vancouver! Please join us at the Red Room for a wonderful evening of creativity and community, a live painting tournament showcasing local artists and connecting Vancouver to towns and cities around the world! Audience vote determines the winner & all paintings will be available via silent auction @ bid.artbattle.com*All Vancouver AB events are 19+Follow along on instagram @artbattleVancouver!TICKETS -\nhttp://artbattle.ticketfly.com/event/1688990$20 General Admission / $15 Early bird / $15 StudentsCongratulations to our AB Vancouver April Champion - Honeylyn Amaga! She advances to the city finals in June!This event will be hosted by MC Young Nige and music will be spinning all night by DJ Rich Nines! http","venue":{"id":17344,"title":"Red Room Ultra Bar","permalink":"/venues/red-room-ultra-bar","latitude":49.28424949999999,"longitude":-123.1113665,"popularity":5,"address":"398 Richards Street","city":"Vancouver","state":"BC","zip":"V6B 4Y2","full_address":"398 Richards Street, Vancouver, BC, V6B 4Y2","is_english":true},"category":"DJ/Parties","popularity":7,"votes":2,"tz_adjusted_begin_date":"2018-05-19T18:30:00-07:00","tz_adjusted_end_date":"2018-05-20T02:00:00-07:00"},{"title":"Vancaf 2018","excerpt":"The Vancouver Comic Arts Festival is a two day event celebrating comic creators from Vancouver and beyond. Hundreds of artists, writers, cartoonists, illustrators and more will be selling their art, promoting their work, and speaking on panels. This a free event, open to everyone, and we encourage everyone to attend.","venue":{"id":17330,"title":"Roundhouse Community Arts & Recreation Centre","permalink":"/venues/roundhouse-community-arts-recreation-centre","latitude":49.2733084,"longitude":-123.1217472,"popularity":5,"address":"181 Roundhouse Mews","city":"Vancouver","state":"BC","zip":"V6Z 2W3","full_address":"181 Roundhouse Mews, Vancouver, BC, V6Z 2W3","is_english":true},"category":"Art & Culture","popularity":7,"votes":2,"tz_adjusted_begin_date":"2018-05-19T10:00:00-07:00","tz_adjusted_end_date":"2018-05-21T02:00:00-07:00"},{"title":"Deva Premal & Miten with Manose May 2018 The Soul of Mantra","excerpt":"Paul Mercs Concerts is pleased to present celebrated chant masters Deva Premal & Miten with Manose, who will be accompanied by Joby Baker & Rishi. \nDeva Premal & Miten have traveled the world for 20 years, sharing the healing power of mantras. The unique blend of Deva’s voice, the ancient Sanskrit chants, Miten’s soulful songs and Manose’s sacred flute offers audiences an evening of peace and transformation.\nNepalese bansuri maestro, Manose – acknowledged as among the world’s best – accompanies as always Deva Premal & Miten both on flute, vocals and various instruments, including ukulele.\nThe SOUL OF MANTRA – LIVE tour is augmented by Canadian Joby Baker on bass, vocals and keyboards and Danish percussionist, Rishi. Together, this unique ens","venue":{"id":17366,"title":"Chan Centre for the Performing Arts","permalink":"/venues/chan-centre-for-the-performing-arts","latitude":49.2696858,"longitude":-123.2551287,"popularity":6,"address":"6265 Crescent Road, UBC","city":"Vancouver","state":"BC","zip":"V6T 1Z1","full_address":"6265 Crescent Road, UBC, Vancouver, BC, V6T 1Z1","is_english":true},"category":"Music","popularity":6,"votes":0,"tz_adjusted_begin_date":"2018-05-19T19:30:00-07:00","tz_adjusted_end_date":"2018-05-20T02:00:00-07:00"},{"title":"Deva Premal & Miten with Manose: The Soul of Mantra LIVE!","excerpt":"Tickets on sale 10am Friday Nov 24\nPresented by Paul Mercs Concerts\nPaul Mercs Concerts is pleased to present celebrated chant masters Deva Premal & Miten with Manose, who will be accompanied by Joby Baker & Rishi.\nDeva Premal & Miten have traveled the world for 20 years, sharing the healing power of mantras. The unique blend of Deva’s voice, the ancient Sanskrit chants, Miten’s soulful songs and Manose’s sacred flute offers audiences an evening of peace and transformation. Nepalese bansuri maestro, Manose – acknowledged as among the world’s best – accompanies as always Deva Premal & Miten both on flute, vocals and various instruments, including ukulele.\nThe SOUL OF MANTRA – LIVE tour is augmented by Canadian Joby Baker on bass, vocals and k","venue":{"id":17366,"title":"Chan Centre for the Performing Arts","permalink":"/venues/chan-centre-for-the-performing-arts","latitude":49.2696858,"longitude":-123.2551287,"popularity":6,"address":"6265 Crescent Road, UBC","city":"Vancouver","state":"BC","zip":"V6T 1Z1","full_address":"6265 Crescent Road, UBC, Vancouver, BC, V6T 1Z1","is_english":true},"category":"Music","popularity":6,"votes":0,"tz_adjusted_begin_date":"2018-05-19T19:30:00-07:00","tz_adjusted_end_date":"2018-05-20T02:00:00-07:00"},{"title":"Vancouver Virtual Reality Film Festival","excerpt":"VANCOUVER VIRTUAL REALITY FILM FESTIVAL 2018\nEXCLUSIVE Do604 DISCOUNT CODE! \n*Available until Monday, May 14th Only*\nPromo code: \"DO604VR\"\nDiscount: 20%\n\n\n\n\n\nHOSTED BY PREVAIL\nmore information at www.yvrff.com\n\nTo see the list of VR screenings and Installations: \nhttp://yvrff.com/yvrff-2018-film-selections-and-line-up/\n- Blade Runner 2049\n- CocoVR\n- Snatch (Spain)\n- In The Cloud (VR Afterlife)\n + More\n\nChanging the experience of storytelling for the world by 360 degrees...\nYVRFF is a non-profit tech culture organization headquartered in Vancouver, BC. Through our annual film festival event, we are on a mission to change the storytelling experience on a global scale, 360 degrees at a time. We custom curate our content to provide the most rele","venue":{"id":372564,"title":"CBC Studio 700","permalink":"/venues/cbc-studio-700","latitude":49.2794387,"longitude":-123.1142338,"popularity":1,"address":"700 Hamilton Street","city":"Vancouver","state":"BC","zip":"V6B 2R5","full_address":"700 Hamilton Street, Vancouver, BC, V6B 2R5","is_english":true},"category":"Art & Culture","popularity":6,"votes":5,"tz_adjusted_begin_date":"2018-05-18T16:30:00-07:00","tz_adjusted_end_date":"2018-05-21T02:00:00-07:00"},{"title":"Dave Say 5Tet","excerpt":null,"venue":{"id":375218,"title":"Pat's Pub & Brewhouse","permalink":"/venues/pat-s-pub-brewhouse","latitude":49.28125050000001,"longitude":-123.094839,"popularity":1,"address":"403 East Hastings Street","city":"Vancouver","state":"BC","zip":"V6A 1P7","full_address":"403 East Hastings Street, Vancouver, BC, V6A 1P7","is_english":true},"category":"Music","popularity":4,"votes":2,"tz_adjusted_begin_date":"2018-05-19T15:00:00-07:00","tz_adjusted_end_date":"2018-05-20T02:00:00-07:00"},{"title":"Absolut Drag U Lous","excerpt":"Saturday May 19th\nJoin Carlotta and her guests every Saturday night for a spectacular show filled with drag, live numbers, contests and much more, all hosted by one of Vancouvers top drag personas, Carlotta Gurl! Show starts at 10:30, make sure to arrive early for good seating.\nOnce the show ends, the party continues with dancing featuring DJ Mike and guests spinning Top 40, House and everything in between.\nSaturday nights at the Junction are always packed and ALWAYS a blast!","venue":{"id":391427,"title":"The Junction","permalink":"/venues/the-junction","latitude":49.2809468,"longitude":-123.1320503,"popularity":1,"address":"1138 Davie Street","city":"Vancouver","state":"BC","zip":"V6E 4L7","full_address":"1138 Davie Street, Vancouver, BC, V6E 4L7","is_english":true},"category":"DJ/Parties","popularity":3,"votes":2,"tz_adjusted_begin_date":"2018-05-19T22:30:00-07:00","tz_adjusted_end_date":"2018-05-20T02:00:00-07:00"},{"title":"Boomdaddy","excerpt":"https://www.youtube.com/watch?v=S8V9wfjzQAMboomdaddyband.com","venue":{"id":17282,"title":"The Backstage Lounge","permalink":"/venues/the-backstage-lounge","latitude":49.27226169999999,"longitude":-123.1343217,"popularity":2,"address":"1585 Johnston St","city":"Vancouver","state":"BC","zip":"V6H 3R9","full_address":"1585 Johnston St, Vancouver, BC, V6H 3R9","is_english":true},"category":"Music","popularity":3,"votes":0,"tz_adjusted_begin_date":"2018-05-19T21:00:00-07:00","tz_adjusted_end_date":"2018-05-20T02:00:00-07:00"},{"title":"Ask For Luigi Brunch (Saturday)","excerpt":"Come enjoy some fine Italian cuisine for your weekend morning ","venue":{"id":378595,"title":"Ask for Luigi","permalink":"/venues/ask-for-luigi","latitude":49.2842012,"longitude":-123.097692,"popularity":1,"address":"305 Alexander Street","city":"Vancouver","state":"BC","zip":"V6A 1C4","full_address":"305 Alexander Street, Vancouver, BC, V6A 1C4","is_english":true},"category":"Food & Drink","popularity":3,"votes":2,"tz_adjusted_begin_date":"2018-02-03T09:30:00-08:00","tz_adjusted_end_date":"2018-02-03T14:30:00-08:00"},{"title":"Buddy and The Scarecrow","excerpt":null,"venue":{"id":17288,"title":"The Fairview Pub","permalink":"/venues/the-fairview-pub","latitude":49.2631548,"longitude":-123.1237912,"popularity":1,"address":"898 West Broadway","city":"Vancouver","state":"BC","zip":"V5Z 1J8","full_address":"898 West Broadway, Vancouver, BC, V5Z 1J8","is_english":true},"category":"Music","popularity":2,"votes":1,"tz_adjusted_begin_date":"2018-05-19T22:00:00-07:00","tz_adjusted_end_date":"2018-05-20T02:00:00-07:00"},{"title":"Ampletude,The Acoustic Ghosts and Caustic Soda Pop","excerpt":null,"venue":{"id":17262,"title":"The Princeton Pub & Grill","permalink":"/venues/the-princeton-pub-grill","latitude":49.2849583,"longitude":-123.0652398,"popularity":1,"address":"1901 Powell Street","city":"Vancouver","state":"BC","zip":"V5L 1J2","full_address":"1901 Powell Street, Vancouver, BC, V5L 1J2","is_english":true},"category":"Music","popularity":2,"votes":1,"tz_adjusted_begin_date":"2018-05-19T21:00:00-07:00","tz_adjusted_end_date":"2018-05-20T02:00:00-07:00"},{"title":"Scott Driscoll","excerpt":"Scott Driscoll is a regular performer here at the Dubh Linn Gate. He delivers a great mix of Irish, Celtic, Americana, Country, Pop, and Rock music! Scott loves nothing more than to share in a great time with you at the Dubh Linn Gate. So...","venue":{"id":390992,"title":"Dubh Linn Gate","permalink":"/venues/dubh-linn-gate","latitude":49.2714055,"longitude":-123.1008655,"popularity":1,"address":"1601 Main St","city":"Vancouver","state":"BC","zip":"V6A 2V4","full_address":"1601 Main St, Vancouver, BC, V6A 2V4","is_english":true},"category":"Music","popularity":2,"votes":0,"tz_adjusted_begin_date":"2018-05-19T20:00:00-07:00","tz_adjusted_end_date":"2018-05-20T02:00:00-07:00"},{"title":"Damonde Tschritter","excerpt":"Damonde has been hailed in the Globe & Mail as comedy's newsuperhero. An absolutely unique act and perhaps this country'sfinest comedic storyteller.\nView Full Bio","venue":{"id":364225,"title":"Yuk Yuk's Vancouver","permalink":"/venues/yuk-yuk-s-vancouver","latitude":49.2601559,"longitude":-123.1156326,"popularity":1,"address":"2837 Cambie Street","city":"Vancouver","state":"BC","zip":"V5Z 3X7","full_address":"2837 Cambie Street, Vancouver, BC, V5Z 3X7","is_english":true},"category":"Comedy","popularity":2,"votes":0,"tz_adjusted_begin_date":"2018-05-19T20:00:00-07:00","tz_adjusted_end_date":"2018-05-20T02:00:00-07:00"},{"title":"The Souled out Band","excerpt":null,"venue":{"id":17288,"title":"The Fairview Pub","permalink":"/venues/the-fairview-pub","latitude":49.2631548,"longitude":-123.1237912,"popularity":1,"address":"898 West Broadway","city":"Vancouver","state":"BC","zip":"V5Z 1J8","full_address":"898 West Broadway, Vancouver, BC, V5Z 1J8","is_english":true},"category":"Music","popularity":2,"votes":1,"tz_adjusted_begin_date":"2018-05-19T16:00:00-07:00","tz_adjusted_end_date":"2018-05-20T02:00:00-07:00"},{"title":"All British Field Meet ABFM 2018","excerpt":"The 33rd showing of the Greatest Show on British Wheels returns to VanDusen Botanical Garden on the Victoria Day weekend.\nThe largest show of its kind in Western Canada displaying 450 British built classics reflecting the history and automotive culture from the pre-war era through to the late 1970. Stay tuned for more details and visit http://www.westerndriver.com for other information.","venue":{"id":365156,"title":"VanDusen Botanical Gardens","permalink":"/venues/vandusen-botanical-gardens","latitude":49.2385564,"longitude":-123.1287215,"popularity":1,"address":"5251 Oak Street","city":"Vancouver","state":"BC","zip":"V6M 4H1","full_address":"5251 Oak Street, Vancouver, BC, V6M 4H1","is_english":true},"category":"Art & Culture","popularity":1,"votes":0,"tz_adjusted_begin_date":"2018-05-19T19:00:00-07:00","tz_adjusted_end_date":"2018-05-20T02:00:00-07:00"},{"title":"VJGA Sumi Bonsai Club Show","excerpt":"Join the VJGA Sumi Bonsai Club for their annual show.\nSaturday 10 – 4:30 pmSunday 10 – 4 pmContact Hugh Kamisato for more information at 604-980-8127 or email hughkamiyuki@shaw.ca","venue":{"id":365156,"title":"VanDusen Botanical Gardens","permalink":"/venues/vandusen-botanical-gardens","latitude":49.2385564,"longitude":-123.1287215,"popularity":1,"address":"5251 Oak Street","city":"Vancouver","state":"BC","zip":"V6M 4H1","full_address":"5251 Oak Street, Vancouver, BC, V6M 4H1","is_english":true},"category":"Art & Culture","popularity":1,"votes":0,"tz_adjusted_begin_date":"2018-05-19T19:00:00-07:00","tz_adjusted_end_date":"2018-05-21T02:00:00-07:00"},{"title":"Bhakti, Nada Yoga + Deep Listening with Tina James","excerpt":"Spend an afternoon with one of our dearest teachers, mother, activist and dedicated yogini Tina Pashumati James. Sharing wisdom surrounding Patanjali’s Yoga Sutras, Upanishads, The Bhagavad Gita, we will enjoy an afternoon chanting holy mantra, “Bija Meditation\" + yoga nidra.\nShe will offer a wild, Shamanic drum circle evolving consciousness, and deep healing vibrations. Coming together to raise the vibration for ourselves and our beloved planet. In society we have the tendency not to inhabit our bodies. To create alignment between the mind, heart and spirit we must inhabit the body. Drumming is a fundamental way to get back into our bodies, connect with our heart and connect with the group.\nThis afternoon will be a journey of devotion + com","venue":{"id":399025,"title":"Dharma Temple ","permalink":"/venues/dharma-temple","latitude":49.2559125,"longitude":-123.1016259,"popularity":1,"address":"3283 Main Street","city":"VANCOUVER","state":"Br","zip":"V5V 3M6","full_address":"3283 Main Street, VANCOUVER, Br, V5V 3M6","is_english":true},"category":"Sport","popularity":1,"votes":0,"tz_adjusted_begin_date":"2018-05-19T13:30:00-07:00","tz_adjusted_end_date":"2018-05-19T16:30:00-07:00"}]